{"type":"FeatureCollection","features":[{"type":"Feature","geometry":{"type":"Point","coordinates":[13.142278,52.432705]},"properties":{"id":"3","title":"Alter Hof / Unterhavel","state":"gruen","date":"2017-09-12"}},{"type":"Feature","geometry":{"type":"Point","coordinates":[13.622537,52.407498]},"properties":{"id":"6","title":"Bammelecke","state":"gruen","date":"2017-09-05"}},{"type":"Feature","geometry":{"type":"Point","coordinates":[13.179797,52.465753]},"properties":{"id":"9","title":"Breitehorn / Unterhavel","state":"gruen","date":"2017-09-12"}},{"type":"Feature","geometry":{"type":"Point","coordinates":[13.211244,52.584988]},"properties":{"id":"12","title":"Bürgerablage / Oberhavel","state":"gruen","date":"2017-09-11"}},{"type":"Feature","geometry":{"type":"Point","coordinates":[13.735113,52.42692]},"properties":{"id":"15","title":"Dämeritzsee","state":"gruen","date":"2017-09-05"}},{"type":"Feature","geometry":{"type":"Point","coordinates":[13.284889,52.569786]},"properties":{"id":"18","title":"Flughafensee","state":"gruen","date":"2017-09-07"}},{"type":"Feature","geometry":{"type":"Point","coordinates":[13.630692,52.445836]},"properties":{"id":"21","title":"Seebad Friedrichshagen","state":"gruen","date":"2017-09-05"}},{"type":"Feature","geometry":{"type":"Point","coordinates":[13.575727,52.44094]},"properties":{"id":"24","title":"Flussbad Gartenstraße","state":"gruen","date":"2017-09-05"}},{"type":"Feature","geometry":{"type":"Point","coordinates":[13.118568,52.471755]},"properties":{"id":"27","title":"Groß Glienicker See, nördlich","state":"gruen","date":"2017-09-04"}},{"type":"Feature","geometry":{"type":"Point","coordinates":[13.114633,52.460362]},"properties":{"id":"30","title":"Groß Glienicker See, südlich","state":"gruen","date":"2017-09-04"}},{"type":"Feature","geometry":{"type":"Point","coordinates":[13.65238,52.389494]},"properties":{"id":"33","title":"Große Krampe","state":"gruen","date":"2017-09-05"}},{"type":"Feature","geometry":{"type":"Point","coordinates":[13.190224,52.450773]},"properties":{"id":"36","title":"Große Steinlanke / Unterhavel","state":"gruen","date":"2017-09-12"}},{"type":"Feature","geometry":{"type":"Point","coordinates":[13.607215,52.408983]},"properties":{"id":"39","title":"Freibad Grünau","state":"gruen","date":"2017-09-05"}},{"type":"Feature","geometry":{"type":"Point","coordinates":[13.194703,52.482197]},"properties":{"id":"42","title":"Grunewaldturm / Unterhavel","state":"gruen","date":"2017-09-12"}},{"type":"Feature","geometry":{"type":"Point","coordinates":[13.281842,52.494533]},"properties":{"id":"45","title":"Halensee","state":"gruen","date":"2017-09-06"}},{"type":"Feature","geometry":{"type":"Point","coordinates":[13.212969,52.60045]},"properties":{"id":"48","title":"Freibad Heiligensee","state":"gruen","date":"2017-09-07"}},{"type":"Feature","geometry":{"type":"Point","coordinates":[13.274666,52.543708]},"properties":{"id":"51","title":"Freibad Jungfernheide","state":"gruen","date":"2017-09-07"}},{"type":"Feature","geometry":{"type":"Point","coordinates":[13.18595,52.484177]},"properties":{"id":"54","title":"Kleine Badewiese / Unterhavel","state":"gruen","date":"2017-09-12"}},{"type":"Feature","geometry":{"type":"Point","coordinates":[13.677621,52.428217]},"properties":{"id":"57","title":"Kleiner Müggelsee","state":"gruen","date":"2017-09-05"}},{"type":"Feature","geometry":{"type":"Point","coordinates":[13.232416,52.45219]},"properties":{"id":"60","title":"Krumme Lanke","state":"gruen","date":"2017-09-06"}},{"type":"Feature","geometry":{"type":"Point","coordinates":[13.196721,52.469332]},"properties":{"id":"63","title":"Lieper Bucht / Unterhavel","state":"gruen","date":"2017-09-12"}},{"type":"Feature","geometry":{"type":"Point","coordinates":[13.336049,52.61795]},"properties":{"id":"66","title":"Freibad Lübars (Ziegeleisee)","state":"gruen","date":"2017-09-07"}},{"type":"Feature","geometry":{"type":"Point","coordinates":[13.675901,52.444719]},"properties":{"id":"69","title":"Strandbad Müggelsee","state":"gruen","date":"2017-09-05"}},{"type":"Feature","geometry":{"type":"Point","coordinates":[13.484255,52.549596]},"properties":{"id":"72","title":"Strandbad Orankesee","state":"gruen","date":"2017-09-13"}},{"type":"Feature","geometry":{"type":"Point","coordinates":[13.32923,52.543601]},"properties":{"id":"75","title":"Freibad Plötzensee","state":"gruen","date":"2017-09-07"}},{"type":"Feature","geometry":{"type":"Point","coordinates":[13.189634,52.458612]},"properties":{"id":"78","title":"Radfahrerwiese / Unterhavel","state":"gruen","date":"2017-09-12"}},{"type":"Feature","geometry":{"type":"Point","coordinates":[13.220866,52.594572]},"properties":{"id":"81","title":"Sandhauser Straße / Oberhavel","state":"gruen","date":"2017-09-11"}},{"type":"Feature","geometry":{"type":"Point","coordinates":[13.217128,52.443358]},"properties":{"id":"84","title":"Schlachtensee","state":"gruen","date":"2017-09-06"}},{"type":"Feature","geometry":{"type":"Point","coordinates":[13.653285,52.373237]},"properties":{"id":"87","title":"Schmöckwitz","state":"a","date":"2017-09-05"}},{"type":"Feature","geometry":{"type":"Point","coordinates":[13.685492,52.387203]},"properties":{"id":"90","title":"Seddinsee","state":"gruen","date":"2017-09-05"}},{"type":"Feature","geometry":{"type":"Point","coordinates":[13.245277,52.577838]},"properties":{"id":"93","title":"Freibad Tegeler See","state":"gruen","date":"2017-09-11"}},{"type":"Feature","geometry":{"type":"Point","coordinates":[13.256018,52.568188]},"properties":{"id":"96","title":"gegenüber Reiswerder / Tegeler See","state":"gruen","date":"2017-09-11"}},{"type":"Feature","geometry":{"type":"Point","coordinates":[13.244252,52.575719]},"properties":{"id":"99","title":"gegenüber Scharfenberg / Tegeler See","state":"gruen","date":"2017-09-11"}},{"type":"Feature","geometry":{"type":"Point","coordinates":[13.255193,52.585638]},"properties":{"id":"102","title":"Reiherwerder / Tegeler See","state":"gruen","date":"2017-09-11"}},{"type":"Feature","geometry":{"type":"Point","coordinates":[13.246842,52.56216]},"properties":{"id":"105","title":"Saatwinkel / Tegeler See","state":"gruen","date":"2017-09-11"}},{"type":"Feature","geometry":{"type":"Point","coordinates":[13.234497,52.490609]},"properties":{"id":"108","title":"Teufelssee","state":"gruen","date":"2017-09-06"}},{"type":"Feature","geometry":{"type":"Point","coordinates":[13.176804,52.438898]},"properties":{"id":"111","title":"Strandbad Wannsee","state":"gruen","date":"2017-08-29"}},{"type":"Feature","geometry":{"type":"Point","coordinates":[13.465588,52.553957]},"properties":{"id":"114","title":"Seebadeanstalt Weißensee","state":"gruen","date":"2017-09-13"}},{"type":"Feature","geometry":{"type":"Point","coordinates":[13.600317,52.415144]},"properties":{"id":"117","title":"Freibad Wendenschloss","state":"gruen","date":"2017-09-05"}}]}