{"type":"FeatureCollection","features":[{"type":"Feature","geometry":{"type":"Point","coordinates":[13.1423644,52.4349108]},"properties":{"id":"2","title":"Alter Hof / Unterhavel","state":"gruen","date":"2017-09-12"}},{"type":"Feature","geometry":{"type":"Point","coordinates":[13.6237,52.4093]},"properties":{"id":"4","title":"Bammelecke","state":"gruen","date":"2017-09-05"}},{"type":"Feature","geometry":{"type":"Point","coordinates":[13.180702,52.4648988]},"properties":{"id":"6","title":"Breitehorn / Unterhavel","state":"gruen","date":"2017-09-12"}},{"type":"Feature","geometry":{"type":"Point","coordinates":[13.2136153,52.5866148]},"properties":{"id":"8","title":"Bürgerablage / Oberhavel","state":"gruen","date":"2017-09-11"}},{"type":"Feature","geometry":{"type":"Point","coordinates":[13.7313346,52.4256948]},"properties":{"id":"10","title":"Dämeritzsee","state":"gruen","date":"2017-09-05"}},{"type":"Feature","geometry":{"type":"Point","coordinates":[13.2856306,52.5700818]},"properties":{"id":"12","title":"Flughafensee","state":"gruen","date":"2017-09-07"}},{"type":"Feature","geometry":{"type":"Point","coordinates":[13.6306004,52.445554]},"properties":{"id":"14","title":"Seebad Friedrichshagen","state":"gruen","date":"2017-09-05"}},{"type":"Feature","geometry":{"type":"Point","coordinates":[13.5758086,52.4418048]},"properties":{"id":"16","title":"Flussbad Gartenstraße","state":"gruen","date":"2017-09-05"}},{"type":"Feature","geometry":{"type":"Point","coordinates":[13.1168158,52.4694978]},"properties":{"id":"18","title":"Groß Glienicker See, nördlich","state":"gruen","date":"2017-09-04"}},{"type":"Feature","geometry":{"type":"Point","coordinates":[13.1140375,52.4676888]},"properties":{"id":"20","title":"Groß Glienicker See, südlich","state":"gruen","date":"2017-09-04"}},{"type":"Feature","geometry":{"type":"Point","coordinates":[13.6517635,52.3868598]},"properties":{"id":"22","title":"Große Krampe","state":"gruen","date":"2017-09-05"}},{"type":"Feature","geometry":{"type":"Point","coordinates":[13.1901394,52.4527308]},"properties":{"id":"24","title":"Große Steinlanke / Unterhavel","state":"gruen","date":"2017-09-12"}},{"type":"Feature","geometry":{"type":"Point","coordinates":[13.600676,52.41259]},"properties":{"id":"26","title":"Freibad Grünau","state":"gruen","date":"2017-09-05"}},{"type":"Feature","geometry":{"type":"Point","coordinates":[13.1952991,52.4840688]},"properties":{"id":"28","title":"Grunewaldturm / Unterhavel","state":"gruen","date":"2017-09-12"}},{"type":"Feature","geometry":{"type":"Point","coordinates":[13.2820265,52.4943698]},"properties":{"id":"30","title":"Halensee","state":"gruen","date":"2017-09-06"}},{"type":"Feature","geometry":{"type":"Point","coordinates":[13.2152176,52.6030848]},"properties":{"id":"32","title":"Freibad Heiligensee","state":"gruen","date":"2017-09-07"}},{"type":"Feature","geometry":{"type":"Point","coordinates":[13.27645,52.545394]},"properties":{"id":"34","title":"Freibad Jungfernheide","state":"gruen","date":"2017-09-07"}},{"type":"Feature","geometry":{"type":"Point","coordinates":[13.1858176,52.4754918]},"properties":{"id":"36","title":"Kleine Badewiese / Unterhavel","state":"gruen","date":"2017-09-12"}},{"type":"Feature","geometry":{"type":"Point","coordinates":[13.677562,52.4296548]},"properties":{"id":"38","title":"Kleiner Müggelsee","state":"gruen","date":"2017-09-05"}},{"type":"Feature","geometry":{"type":"Point","coordinates":[13.23421,52.4541708]},"properties":{"id":"40","title":"Krumme Lanke","state":"gruen","date":"2017-09-06"}},{"type":"Feature","geometry":{"type":"Point","coordinates":[13.1973424,52.4718738]},"properties":{"id":"42","title":"Lieper Bucht / Unterhavel","state":"gruen","date":"2017-09-12"}},{"type":"Feature","geometry":{"type":"Point","coordinates":[13.335624,52.61817]},"properties":{"id":"44","title":"Freibad Lübars (Ziegeleisee)","state":"gruen","date":"2017-09-07"}},{"type":"Feature","geometry":{"type":"Point","coordinates":[13.670136,52.448154]},"properties":{"id":"46","title":"Strandbad Müggelsee","state":"gruen","date":"2017-09-05"}},{"type":"Feature","geometry":{"type":"Point","coordinates":[13.485932,52.550944]},"properties":{"id":"48","title":"Strandbad Orankesee","state":"gruen","date":"2017-09-13"}},{"type":"Feature","geometry":{"type":"Point","coordinates":[13.331186,52.545116]},"properties":{"id":"50","title":"Freibad Plötzensee","state":"gruen","date":"2017-09-07"}},{"type":"Feature","geometry":{"type":"Point","coordinates":[13.1891986,52.4607318]},"properties":{"id":"52","title":"Radfahrerwiese / Unterhavel","state":"gruen","date":"2017-09-12"}},{"type":"Feature","geometry":{"type":"Point","coordinates":[13.2227146,52.5963078]},"properties":{"id":"54","title":"Sandhauser Straße / Oberhavel","state":"gruen","date":"2017-09-11"}},{"type":"Feature","geometry":{"type":"Point","coordinates":[13.2068985,52.4419891]},"properties":{"id":"56","title":"Schlachtensee","state":"gruen","date":"2017-09-06"}},{"type":"Feature","geometry":{"type":"Point","coordinates":[13.6547917,52.3761948]},"properties":{"id":"58","title":"Schmöckwitz","state":"a","date":"2017-09-05"}},{"type":"Feature","geometry":{"type":"Point","coordinates":[13.6842946,52.3911348]},"properties":{"id":"60","title":"Seddinsee","state":"gruen","date":"2017-09-05"}},{"type":"Feature","geometry":{"type":"Point","coordinates":[13.24728,52.579568]},"properties":{"id":"62","title":"Freibad Tegeler See","state":"gruen","date":"2017-09-11"}},{"type":"Feature","geometry":{"type":"Point","coordinates":[13.2572302,52.5701718]},"properties":{"id":"64","title":"gegenüber Reiswerder / Tegeler See","state":"gruen","date":"2017-09-11"}},{"type":"Feature","geometry":{"type":"Point","coordinates":[13.246411,52.5773628]},"properties":{"id":"66","title":"gegenüber Scharfenberg / Tegeler See","state":"gruen","date":"2017-09-11"}},{"type":"Feature","geometry":{"type":"Point","coordinates":[13.2574801,52.5868758]},"properties":{"id":"68","title":"Reiherwerder / Tegeler See","state":"gruen","date":"2017-09-11"}},{"type":"Feature","geometry":{"type":"Point","coordinates":[13.250527,52.5661668]},"properties":{"id":"70","title":"Saatwinkel / Tegeler See","state":"gruen","date":"2017-09-11"}},{"type":"Feature","geometry":{"type":"Point","coordinates":[13.2356947,52.4929428]},"properties":{"id":"72","title":"Teufelssee","state":"gruen","date":"2017-09-06"}},{"type":"Feature","geometry":{"type":"Point","coordinates":[13.1755864,52.4405718]},"properties":{"id":"74","title":"Strandbad Wannsee","state":"gruen","date":"2017-08-29"}},{"type":"Feature","geometry":{"type":"Point","coordinates":[13.5999899,52.41515]},"properties":{"id":"76","title":"Freibad Wendenschloss","state":"gruen","date":"2017-09-05"}}]}